{"version": 0.6, "generator": "Overpass API 0.7.62.8 e802775f", "osm3s": {"timestamp_osm_base": "2025-09-15T09:52:00Z", "copyright": "The data included in this document is from www.openstreetmap.org. The data is made available under ODbL."}, "elements": [{"type": "node", "id": 1351674241, "lat": 10.8265406, "lon": 78.6934268}, {"type": "node", "id": 1351674242, "lat": 10.8257714, "lon": 78.694559}, {"type": "node", "id": 1351674243, "lat": 10.8246807, "lon": 78.6936146}, {"type": "node", "id": 1351674244, "lat": 10.8260664, "lon": 78.694843}, {"type": "node", "id": 1351674245, "lat": 10.8256238, "lon": 78.6947521}, {"type": "node", "id": 1351674246, "lat": 10.8256396, "lon": 78.693518}, {"type": "node", "id": 1351674247, "lat": 10.8259347, "lon": 78.6935126}, {"type": "node", "id": 1351674248, "lat": 10.8239536, "lon": 78.694044}, {"type": "node", "id": 1351674249, "lat": 10.8243277, "lon": 78.6936468}, {"type": "node", "id": 1351674250, "lat": 10.8238851, "lon": 78.6946555}, {"type": "node", "id": 1351674251, "lat": 10.8244963, "lon": 78.6947628}, {"type": "node", "id": 1351674253, "lat": 10.8260559, "lon": 78.6945697}, {"type": "node", "id": 1351674254, "lat": 10.8265301, "lon": 78.6948487}, {"type": "node", "id": 1351674255, "lat": 10.8261244, "lon": 78.6934375}, {"type": "node", "id": 1351674256, "lat": 10.8239694, "lon": 78.6936682}, {"type": "node", "id": 1482551749, "lat": 10.8178071, "lon": 78.6884958, "tags": {"amenity": "school", "name": "Mahatma Gandhi Centinary Vidayalaya", "name:etymology:wikidata": "Q1001"}}, {"type": "node", "id": 1482551796, "lat": 10.8178597, "lon": 78.6881846, "tags": {"amenity": "school", "name": "Rajaji Vidyalaya"}}, {"type": "node", "id": 1482555671, "lat": 10.8255865, "lon": 78.6919346, "tags": {"amenity": "school", "name": "Holy Cross Girls Higher Secondary School"}}, {"type": "node", "id": 1719289076, "lat": 10.8308335, "lon": 78.6848076, "tags": {"addr:district": "Tiruchirappalli", "addr:full": "#1, Annamalai Nagar,Main Road,Annamalai Nagar", "addr:postcode": "620018", "addr:state": "Tamil Nadu", "amenity": "hospital", "emergency": "yes", "healthcare": "hospital", "name": "Assured Best Care Hospital (P) Ltd., ( Abc Hospital)", "source": "OpenGovernmentData"}}, {"type": "node", "id": 2147393585, "lat": 10.8044948, "lon": 78.6845541}, {"type": "node", "id": 2147393586, "lat": 10.8053932, "lon": 78.683253}, {"type": "node", "id": 2147393587, "lat": 10.8054534, "lon": 78.6853739}, {"type": "node", "id": 2147393588, "lat": 10.8044585, "lon": 78.6845843}, {"type": "node", "id": 2147393589, "lat": 10.8047081, "lon": 78.6848347}, {"type": "node", "id": 2147393590, "lat": 10.8040748, "lon": 78.6840399}, {"type": "node", "id": 2147393591, "lat": 10.806113, "lon": 78.6843538}, {"type": "node", "id": 2152463908, "lat": 10.8340169, "lon": 78.6947328, "tags": {"addr:district": "Tiruchirappalli", "addr:full": "37&39, Chinthamani Bazaar ( Near Anna Statue )", "addr:postcode": "620001", "addr:state": "Tamil Nadu", "amenity": "hospital", "healthcare": "hospital", "name": "Frontline Hospital and Research Institute", "source": "OpenGovernmentData", "wheelchair": "yes"}}, {"type": "node", "id": 2174971115, "lat": 10.7608354, "lon": 78.6953523, "tags": {"amenity": "school"}}, {"type": "node", "id": 2212486565, "lat": 10.8110019, "lon": 78.6666905, "tags": {"amenity": "school", "name": "Saraswathi Bala Mandir School"}}, {"type": "node", "id": 2212492352, "lat": 10.8100113, "lon": 78.6804341, "tags": {"amenity": "hospital", "healthcare": "hospital", "name": "Maruti Hospital", "name:ta": "\u0bae\u0bbe\u0bb0\u0bc1\u0ba4\u0bbf \u0bae\u0bb0\u0bc1\u0ba4\u0bcd\u0ba4\u0bc1\u0bb5\u0bae\u0ba9\u0bc8", "website": "http://www.marutihospital.in/"}}, {"type": "node", "id": 2686079025, "lat": 10.7435207, "lon": 78.7003013}, {"type": "node", "id": 2686079026, "lat": 10.743605, "lon": 78.6998654}, {"type": "node", "id": 2686079027, "lat": 10.7442636, "lon": 78.7000113}, {"type": "node", "id": 2686079035, "lat": 10.7443197, "lon": 78.7020796}, {"type": "node", "id": 2686079036, "lat": 10.7440003, "lon": 78.7024256}, {"type": "node", "id": 2686079037, "lat": 10.7437921, "lon": 78.7026482}, {"type": "node", "id": 2686079038, "lat": 10.7436814, "lon": 78.7026885}, {"type": "node", "id": 2686079039, "lat": 10.7435457, "lon": 78.7029211}, {"type": "node", "id": 2686079040, "lat": 10.7436524, "lon": 78.7027797}, {"type": "node", "id": 2686079041, "lat": 10.7436235, "lon": 78.7027877}, {"type": "node", "id": 2686079042, "lat": 10.7435866, "lon": 78.7029245}, {"type": "node", "id": 2686079043, "lat": 10.7433362, "lon": 78.7028199}, {"type": "node", "id": 2686079044, "lat": 10.7434647, "lon": 78.7028883}, {"type": "node", "id": 2686079045, "lat": 10.7434891, "lon": 78.7023022}, {"type": "node", "id": 2686079046, "lat": 10.7435576, "lon": 78.7020421}, {"type": "node", "id": 2686079047, "lat": 10.7436208, "lon": 78.7017711}, {"type": "node", "id": 2686079048, "lat": 10.7436709, "lon": 78.7015163}, {"type": "node", "id": 2686079049, "lat": 10.7433468, "lon": 78.7014627}, {"type": "node", "id": 2686079050, "lat": 10.7433389, "lon": 78.7009504}, {"type": "node", "id": 2686079051, "lat": 10.7433599, "lon": 78.7006044}, {"type": "node", "id": 2686079052, "lat": 10.7428777, "lon": 78.7006607}, {"type": "node", "id": 2686079053, "lat": 10.7430701, "lon": 78.6997568}, {"type": "node", "id": 2686079054, "lat": 10.7432677, "lon": 78.6998105}, {"type": "node", "id": 2686079055, "lat": 10.7431834, "lon": 78.7002181}, {"type": "node", "id": 3730202069, "lat": 10.827056, "lon": 78.6846068, "tags": {"amenity": "hospital", "healthcare": "hospital", "name": "Raja Maternity Hospital"}}, {"type": "node", "id": 3730202072, "lat": 10.8123761, "lon": 78.7162558, "tags": {"addr:block": "Thuraiyur Mpty", "addr:district": "Tiruchirappalli", "addr:full": "Near Smr Mahal, Ariyamangalam Area, Tiruchirappalli,", "addr:postcode": "621010", "addr:state": "Tamil Nadu", "addr:subdistrict": "Thuraiyur", "amenity": "hospital", "healthcare": "hospital", "name": "Sree Balaji Hospital", "source": "OpenGovernmentData", "wheelchair": "yes"}}, {"type": "node", "id": 3734782469, "lat": 10.80708, "lon": 78.7111538, "tags": {"addr:city": "Tiruchirapalli", "addr:district": "Tiruchirapalli", "addr:postcode": "620010", "addr:street": "Chennai-Madurai Highway", "addr:suburb": "Ariyamangalam Area", "amenity": "hospital", "brand": "Apollo Hospitals", "contact:email": "guestrelations_trichy@apollohospitals.com", "contact:phone": "+91-431-3307777", "contact:website": "https://www.apollohospitals.com/hospital-in-trichy.php", "email": "frontoffice_trichy@apollohospitals.com", "emergency": "yes", "healthcare": "hospital", "name": "Apollo Speciality Hospitals", "operator": "Apollo Hospitals", "operator:wikidata": "Q4780321", "operator:wikipedia": "en:Apollo Hospitals", "website": "https://www.apollohospitals.com/hospital-in-trichy.php"}}, {"type": "node", "id": 4354765463, "lat": 10.7901824, "lon": 78.6672542}, {"type": "node", "id": 4354765464, "lat": 10.7901198, "lon": 78.6677957}, {"type": "node", "id": 4354765465, "lat": 10.7895774, "lon": 78.6676222}, {"type": "node", "id": 4354765466, "lat": 10.7896261, "lon": 78.6670631}, {"type": "node", "id": 4381628590, "lat": 10.7972296, "lon": 78.6775982, "tags": {"addr:postcode": "620001", "addr:street": "Collector's office road", "amenity": "school", "email": "kapvgmctry@yahoo.co.in", "name": "K.A.P. Viswanatham Government Medical College", "name:en": "K.A.P.VISHWANATHAM GOVERNMENT MEDICAL COLLEGE", "opening_hours": "Mo-Su 10:00-17:00", "phone": "+91 431 240 1011", "website": "http://www.kapvgmc.ac.in"}}, {"type": "node", "id": 4416013690, "lat": 10.7801543, "lon": 78.6767609, "tags": {"amenity": "school", "name:en": "Santa Maria Matriculation School"}}, {"type": "node", "id": 4420664530, "lat": 10.7816727, "lon": 78.68949, "tags": {"amenity": "school", "name": "Samithi higher secondary school"}}, {"type": "node", "id": 4442170458, "lat": 10.8197864, "lon": 78.7265886, "tags": {"amenity": "school", "name": "The British English Medium Matriculation School"}}, {"type": "node", "id": 4458827834, "lat": 10.7827175, "lon": 78.7249488, "tags": {"amenity": "school", "name": "st.Holly cross school"}}, {"type": "node", "id": 4458827836, "lat": 10.7790788, "lon": 78.7235406, "tags": {"amenity": "school", "name": "st.sacred heart hr.sec.school"}}, {"type": "node", "id": 4458827844, "lat": 10.7857499, "lon": 78.7251483, "tags": {"amenity": "hospital", "name": "central Government railway Hospital"}}, {"type": "node", "id": 4458827860, "lat": 10.7780799, "lon": 78.7197097, "tags": {"amenity": "school", "name": "st.joseph's girls' hr.sec.school"}}, {"type": "node", "id": 4458827870, "lat": 10.7780444, "lon": 78.71887, "tags": {"amenity": "school", "name": "st.joseph's nursery &primary school"}}, {"type": "node", "id": 4521245481, "lat": 10.7957281, "lon": 78.6776341}, {"type": "node", "id": 4521245482, "lat": 10.7963391, "lon": 78.6784879}, {"type": "node", "id": 4521245483, "lat": 10.7958749, "lon": 78.6791875}, {"type": "node", "id": 4521245484, "lat": 10.7951211, "lon": 78.6783944}, {"type": "node", "id": 4524030143, "lat": 10.8046392, "lon": 78.691844}, {"type": "node", "id": 4524030144, "lat": 10.8057316, "lon": 78.6923541}, {"type": "node", "id": 4524030145, "lat": 10.8058506, "lon": 78.6924268}, {"type": "node", "id": 4524030146, "lat": 10.8054757, "lon": 78.6936161}, {"type": "node", "id": 4524030147, "lat": 10.8049345, "lon": 78.6934513}, {"type": "node", "id": 4524030148, "lat": 10.8042583, "lon": 78.6929211}, {"type": "node", "id": 4535572187, "lat": 10.7444081, "lon": 78.7004139}, {"type": "node", "id": 4535572689, "lat": 10.7449973, "lon": 78.7001928}, {"type": "node", "id": 4535572693, "lat": 10.7443817, "lon": 78.7004649}, {"type": "node", "id": 4535572695, "lat": 10.7450766, "lon": 78.7002128}, {"type": "node", "id": 4535572697, "lat": 10.745074, "lon": 78.7005373}, {"type": "node", "id": 4543308039, "lat": 10.8020383, "lon": 78.6915667, "tags": {"addr:district": "Tiruchirappalli", "addr:full": "Post Box No:138, Melapudhur,General Post Office", "addr:postcode": "620001", "addr:state": "Tamil Nadu", "amenity": "hospital", "healthcare": "hospital", "name": "Joseph Eye Hospital (Institute Of Ophthalmology)", "source": "OpenGovernmentData"}}, {"type": "node", "id": 4680384444, "lat": 10.8056206, "lon": 78.6851349}, {"type": "node", "id": 4680384445, "lat": 10.8055638, "lon": 78.6852671}, {"type": "node", "id": 4878927463, "lat": 10.7842622, "lon": 78.7152494, "tags": {"amenity": "school", "brand": "Kendriya Vidhyalaya"}}, {"type": "node", "id": 4878937183, "lat": 10.7495754, "lon": 78.71199, "tags": {"amenity": "school", "name": "Abbot Matric Higher Secondary School"}}, {"type": "node", "id": 4878937184, "lat": 10.7846995, "lon": 78.7184987, "tags": {"amenity": "school", "name": "Railway Mixed High School"}}, {"type": "node", "id": 4878938321, "lat": 10.8008896, "lon": 78.7338782, "tags": {"amenity": "school", "name": "Equitas Gurukul Matriculation School", "phone": "+91 431 244 0011"}}, {"type": "node", "id": 4919751021, "lat": 10.7832725, "lon": 78.6917312, "tags": {"addr:street": "Tiruchchirappalli Bypass", "amenity": "school", "name:en": "Samadh CBSC School"}}, {"type": "node", "id": 5003291559, "lat": 10.80893, "lon": 78.7234104, "tags": {"amenity": "school", "name": "Srinivas Vidhyalaya"}}, {"type": "node", "id": 5003295021, "lat": 10.8181109, "lon": 78.6817074, "tags": {"addr:block": "Tiruchirapalli Corp", "addr:district": "Tiruchirappalli", "addr:full": "No.B-17, (Behind) Yes Bank, Trichy, 11-B Cross Thillai Nagar", "addr:postcode": "620018", "addr:state": "Tamil Nadu", "amenity": "hospital", "healthcare": "hospital", "name": "Tiruchy Medical Center & Hospitals", "source": "OpenGovernmentData"}}, {"type": "node", "id": 5038250838, "lat": 10.8181383, "lon": 78.6850014, "tags": {"amenity": "hospital", "healthcare": "hospital", "name": "Mahatma eye hospital"}}, {"type": "node", "id": 5234626729, "lat": 10.818075, "lon": 78.6880143, "tags": {"amenity": "school", "name": "mahatma gandhi vidyalaya"}}, {"type": "node", "id": 5234688161, "lat": 10.8145145, "lon": 78.6783028, "tags": {"amenity": "school", "name": "bishop high school"}}, {"type": "node", "id": 5234732313, "lat": 10.8076704, "lon": 78.6810266, "tags": {"amenity": "hospital", "healthcare": "hospital", "name": "harijian hospital"}}, {"type": "node", "id": 5234743117, "lat": 10.8023451, "lon": 78.6801881, "tags": {"addr:block": "Tiruchirapalli Corp", "addr:district": "Tiruchirappalli", "addr:full": "No 6, Near Gajapriya Hotel, Royal Road, Cantonment, Tiruchirappalli", "addr:postcode": "620001", "addr:state": "Tamil Nadu", "amenity": "hospital", "healthcare": "hospital", "name": "kauvery Hospital", "source": "OpenGovernmentData"}}, {"type": "node", "id": 5338396371, "lat": 10.8333326, "lon": 78.6906258, "tags": {"addr:district": "Tiruchirappalli", "addr:full": "34/ 1-First Cross Vn Ngar Karur Bye Pass Road, Near Chathiram Bus Stand", "addr:postcode": "620001", "addr:state": "Tamil Nadu", "amenity": "hospital", "brand": "Atlas Hospitals", "email": "info@atlashospitals.com", "emergency": "yes", "healthcare": "hospital", "name": "Atlas Hospital", "phone": "0431-2701248", "source": "OpenGovernmentData", "website": "https://www.atlashospitals.com/"}}, {"type": "node", "id": 5338398122, "lat": 10.8345517, "lon": 78.69014, "tags": {"amenity": "school", "check_date": "2025-02-12", "name": "Vidivelli Special School", "source": "survey"}}, {"type": "node", "id": 5339409228, "lat": 10.8346516, "lon": 78.6908794, "tags": {"amenity": "hospital", "check_date": "2025-02-12", "healthcare": "hospital", "name": "Neuro One Hospital", "source": "survey"}}, {"type": "node", "id": 5458744730, "lat": 10.7541794, "lon": 78.6958679}, {"type": "node", "id": 5458744731, "lat": 10.7542008, "lon": 78.6959722}, {"type": "node", "id": 5458744732, "lat": 10.7542776, "lon": 78.6959559}, {"type": "node", "id": 5458744733, "lat": 10.7543192, "lon": 78.6960317}, {"type": "node", "id": 5458744734, "lat": 10.7544501, "lon": 78.6960039}, {"type": "node", "id": 5458744735, "lat": 10.7544122, "lon": 78.6958185}, {"type": "node", "id": 6494325189, "lat": 10.8051465, "lon": 78.6865772, "tags": {"addr:district": "Tiruchirappalli", "addr:full": "C.J. Hospital, P. Box. No. 17,Cantonment,Next To All India Radio", "addr:postcode": "620001", "addr:state": "Tamil Nadu", "amenity": "hospital", "healthcare": "hospital", "healthcare:speciality": "childcare", "name": "Child Jesus Hospital"}}, {"type": "node", "id": 6513984737, "lat": 10.7983836, "lon": 78.6872508, "tags": {"amenity": "school", "check_date": "2025-02-12", "name": "St. James Matriculation Higher Secondary School", "religion": "christian", "source": "survey"}}, {"type": "node", "id": 6914768075, "lat": 10.8018429, "lon": 78.6801137, "tags": {"addr:district": "Tiruchirappalli", "addr:full": "No.6, Royal Road, Tiruchirapally,Tamil Nadu", "addr:postcode": "620001", "addr:state": "Tamil Nadu", "amenity": "hospital", "healthcare": "hospital", "name": "Sea Horse Hospitals Ltd.", "source": "OpenGovernmentData"}}, {"type": "node", "id": 6914893995, "lat": 10.8371351, "lon": 78.6869453, "tags": {"addr:district": "Tiruchirappalli", "addr:full": "No 39, Karur By Pass Road Near Kalaignar Arivalayam Trichy", "addr:postcode": "620002", "addr:state": "Tamil Nadu", "amenity": "hospital", "healthcare": "hospital", "name": "Mmm Hospitals", "source": "OpenGovernmentData"}}, {"type": "node", "id": 6914896221, "lat": 10.8153217, "lon": 78.6667261, "tags": {"addr:district": "Tiruchirappalli", "addr:full": "No-1, 7Th Cross , Srinivasa Nagar", "addr:postcode": "620017", "addr:state": "Tamil Nadu", "amenity": "hospital", "healthcare": "hospital", "name": "R J Hospital, Tiruchirappalli", "source": "OpenGovernmentData"}}, {"type": "node", "id": 6915194017, "lat": 10.8266431, "lon": 78.6816224, "tags": {"addr:district": "Tiruchirappalli", "addr:full": "3, First Cross West Extension, Thillai Nagar", "addr:postcode": "620016", "addr:state": "Tamil Nadu", "amenity": "hospital", "healthcare": "hospital", "name": "Jagadha Hospital", "source": "OpenGovernmentData"}}, {"type": "node", "id": 6915805222, "lat": 10.824368, "lon": 78.6952212, "tags": {"addr:district": "Tiruchirappalli", "addr:full": "46, Singarathope", "addr:postcode": "620008", "addr:state": "Tamil Nadu", "amenity": "hospital", "healthcare": "hospital", "name": "Gvn Hospital", "source": "OpenGovernmentData"}}, {"type": "node", "id": 6916179823, "lat": 10.8281504, "lon": 78.6848478, "tags": {"addr:block": "Tiruchirapalli Corp", "addr:district": "Tiruchirappalli", "addr:full": "No.10, Near Abc Hospital, Trichy, Big Sowrashtra Street,Annamalai Nagar", "addr:postcode": "620018", "addr:state": "Tamil Nadu", "amenity": "hospital", "healthcare": "hospital", "name": "Vasan Eye Care,Annamalai Nagar", "source": "OpenGovernmentData"}}, {"type": "node", "id": 6926363335, "lat": 10.8239853, "lon": 78.684353, "tags": {"addr:block": "Tiruchirapalli Corp", "addr:district": "Tiruchirappalli", "addr:full": "C-108,Fort Station Road,5Th Cross, Thillainagar,Makkal Mandram", "addr:postcode": "620018", "addr:state": "Tamil Nadu", "amenity": "hospital", "healthcare": "hospital", "name": "Cethar Healthcare Services Private Limited.", "source": "OpenGovernmentData"}}, {"type": "node", "id": 6926383839, "lat": 10.8261601, "lon": 78.6850718, "tags": {"addr:block": "Tiruchirapalli Corp", "addr:district": "Tiruchirappalli", "addr:full": "addr:full=1st Cross Rd, Thillai Nagar East, North East Extension, Thillai Nagar", "addr:postcode": "620018", "addr:state": "Tamil Nadu", "amenity": "hospital", "healthcare": "hospital", "name": "Ananthagiri Hospital", "source": "OpenGovernmentData"}}, {"type": "node", "id": 6926437407, "lat": 10.8128412, "lon": 78.6744489, "tags": {"addr:district": "Tiruchirappalli", "addr:full": "Surya Avenue, Aryna Nagar, Puthur", "addr:postcode": "620017", "addr:state": "Tamil Nadu", "amenity": "hospital", "healthcare": "hospital", "name": "Friends Eye Hospital", "source": "OpenGovernmentData"}}, {"type": "node", "id": 6926437423, "lat": 10.824096, "lon": 78.6999379, "tags": {"addr:district": "Tiruchirappalli", "addr:full": "No 27, Masuth Near, Trichy, Babau Road", "addr:postcode": "620002", "addr:state": "Tamil Nadu", "addr:subdistrict": "Srirangam", "amenity": "hospital", "email": "viswanathanhospital@gmail.com", "healthcare": "hospital", "name": "Dr. G. Viswanathan Speciality Hospitals", "phone": "+914314041234", "source": "OpenGovernmentData", "website": "https://viswanathanhospital.com/"}}, {"type": "node", "id": 6926494056, "lat": 10.7885019, "lon": 78.6666074, "tags": {"addr:district": "Tiruchirappalli", "addr:full": "95, Trichy Road , Manapparai", "addr:postcode": "621306", "addr:state": "Tamil Nadu", "amenity": "hospital", "healthcare": "hospital", "name": "G.K.M. Surgical Hospital", "source": "OpenGovernmentData"}}, {"type": "node", "id": 6928235796, "lat": 10.8139583, "lon": 78.6750819, "tags": {"addr:block": "Tiruchirapalli Corp", "addr:district": "Tiruchirappalli", "addr:full": "No. 5, Vayaloor Road, Opposite Bishop Heber College Ground, Near Puthur Nal Road, Puthur", "addr:postcode": "620017", "addr:state": "Tamil Nadu", "amenity": "hospital", "healthcare": "hospital", "name": "Gitanjali Medical Center - Tiruchirapalli", "source": "OpenGovernmentData"}}, {"type": "node", "id": 6929244828, "lat": 10.8118335, "lon": 78.6801553, "tags": {"addr:block": "Tiruchirapalli Corp", "addr:district": "Tiruchirappalli", "addr:full": "6, Officer`S Colony Puthur", "addr:postcode": "620017", "addr:state": "Tamil Nadu", "amenity": "hospital", "healthcare": "hospital", "name": "AG Eye Hospital, Puthur", "source": "OpenGovernmentData"}}, {"type": "node", "id": 6929264998, "lat": 10.8142797, "lon": 78.6801285, "tags": {"addr:district": "Tiruchirappalli", "addr:full": "# 21-B, Jaganathapuram,Puthur", "addr:postcode": "620017", "addr:state": "Tamil Nadu", "amenity": "hospital", "healthcare": "hospital", "name": "Janet Hospital", "source": "OpenGovernmentData"}}, {"type": "node", "id": 6931699129, "lat": 10.8264703, "lon": 78.6795866, "tags": {"addr:district": "Tiruchirappalli", "addr:full": "103 A/2, Devar Colony , 1st Cross, Thillai Nagar", "addr:postcode": "620001", "addr:state": "Tamil Nadu", "amenity": "hospital", "healthcare": "hospital", "name": "Tilak Hospitals", "source": "OpenGovernmentData"}}, {"type": "node", "id": 6932176618, "lat": 10.8269425, "lon": 78.6845246, "tags": {"addr:district": "Tiruchirappalli", "addr:full": "A10/156, Salai Road,Thillainagar", "addr:postcode": "620018", "addr:state": "Tamil Nadu", "amenity": "hospital", "healthcare": "hospital", "name": "Rana Maternity Hospital", "source": "OpenGovernmentData"}}, {"type": "node", "id": 6932341207, "lat": 10.8099708, "lon": 78.6794391, "tags": {"addr:district": "Tiruchirappalli", "addr:full": "No. 6, Thiruvika Nagar, Vannarapettai Corner, Opposite To Guru Medical, Puthur", "addr:postcode": "620017", "addr:state": "Tamil Nadu", "amenity": "hospital", "healthcare": "hospital", "name": "Arul Hospital", "source": "OpenGovernmentData"}}, {"type": "node", "id": 6933745722, "lat": 10.8238984, "lon": 78.6866945, "tags": {"addr:district": "Tiruchirappalli", "addr:full": "C-73,4Th Cross,Thillai Nagar,Tiruchirapalli", "addr:postcode": "620018", "addr:state": "Tamil Nadu", "amenity": "hospital", "healthcare": "hospital", "name": "Dr Agarwals Eye Hospital", "operator": "Dr. Agarwal's Eye Hospital", "operator:wikidata": "Q17052044", "source": "OpenGovernmentData"}}, {"type": "node", "id": 6933883291, "lat": 10.823735, "lon": 78.6836649, "tags": {"addr:district": "Tiruchirappalli", "addr:full": "C-124,5Th Cross,Thillainagar", "addr:postcode": "620018", "addr:state": "Tamil Nadu", "amenity": "hospital", "healthcare": "hospital", "name": "Dr.Vas Hospital For Eye and Children", "source": "OpenGovernmentData"}}, {"type": "node", "id": 6933974231, "lat": 10.8216888, "lon": 78.6675935, "tags": {"addr:district": "Tiruchirappalli", "addr:full": "No: 6A/7, First Main Road, Ramalinga Nagar, Woraiyur", "addr:postcode": "620003", "addr:state": "Tamil Nadu", "amenity": "hospital", "healthcare": "hospital", "name": "Sudharsana Hospital", "source": "OpenGovernmentData"}}, {"type": "node", "id": 6934214347, "lat": 10.8215313, "lon": 78.6829026, "tags": {"addr:district": "Tiruchirappalli", "addr:full": "C-165, 9Th A Cross, Thillaina", "addr:postcode": "620018", "addr:state": "Tamil Nadu", "amenity": "hospital", "healthcare": "hospital", "name": "Wellcare Hospital And Research Institute", "source": "OpenGovernmentData"}}, {"type": "node", "id": 6934271043, "lat": 10.8304595, "lon": 78.6964899, "tags": {"addr:district": "Tiruchirappalli", "addr:full": "91, Butterworth Road, Near Chatram Bus Stand", "addr:postcode": "620001", "addr:state": "Tamil Nadu", "amenity": "hospital", "healthcare": "hospital", "name": "M.S Hospitals Senthil Nursing Home", "source": "OpenGovernmentData"}}, {"type": "node", "id": 6934325871, "lat": 10.7834523, "lon": 78.703182, "tags": {"addr:district": "Tiruchirappalli", "addr:full": "Plot No. 5/5, Highways Colony", "addr:postcode": "620020", "addr:state": "Tamil Nadu", "amenity": "hospital", "healthcare": "hospital", "name": "Nalam Hospital", "source": "OpenGovernmentData"}}, {"type": "node", "id": 6934340643, "lat": 10.8191009, "lon": 78.6809117, "tags": {"addr:district": "Tiruchirappalli", "addr:full": "A9, 11Th Cross West,Thillai Nagar", "addr:postcode": "620012", "addr:state": "Tamil Nadu", "amenity": "hospital", "healthcare": "hospital", "name": "Neuro Center", "source": "OpenGovernmentData"}}, {"type": "node", "id": 6934340653, "lat": 10.8004795, "lon": 78.687817, "tags": {"addr:district": "Tiruchirappalli", "addr:full": "3-A/108, Bharathiar Salai,Contonment", "addr:postcode": "620001", "addr:state": "Tamil Nadu", "amenity": "hospital", "healthcare": "hospital", "name": "New Aarthy Hospital", "source": "OpenGovernmentData"}}, {"type": "node", "id": 6934340695, "lat": 10.8161342, "lon": 78.6776501, "tags": {"addr:district": "Tiruchirappalli", "addr:full": "47,47-A, Puthur Road ,Puthur", "addr:postcode": "620012", "addr:state": "Tamil Nadu", "amenity": "hospital", "healthcare": "hospital", "name": "Olympia Hospital", "source": "OpenGovernmentData"}}, {"type": "node", "id": 6934868737, "lat": 10.8239899, "lon": 78.6836898, "tags": {"addr:district": "Tiruchirappalli", "addr:full": "No:B-35(S), 11Th Cross East, Thillainagar", "addr:postcode": "620014", "addr:state": "Tamil Nadu", "amenity": "hospital", "healthcare": "hospital", "name": "Sree Paduka Speciality Hospital", "source": "OpenGovernmentData"}}, {"type": "node", "id": 6935217382, "lat": 10.8260119, "lon": 78.6836193, "tags": {"addr:district": "Tiruchirappalli", "addr:full": "No:15 , 2Road Cross ,Thillai Nagar Mn Road", "addr:postcode": "620012", "addr:state": "Tamil Nadu", "amenity": "hospital", "healthcare": "hospital", "name": "Trp Clinic Zone", "source": "OpenGovernmentData"}}, {"type": "node", "id": 6936299001, "lat": 10.8253605, "lon": 78.6836918, "tags": {"addr:block": "Tiruchirapalli Corp", "addr:district": "Tiruchirappalli", "addr:full": "C-12, 3 rd Cross East, Thillainasar", "addr:postcode": "620018", "addr:state": "Tamil Nadu", "amenity": "hospital", "healthcare": "hospital", "name": "Royal Pearl Hosptial", "source": "OpenGovernmentData"}}, {"type": "node", "id": 6936335755, "lat": 10.8179628, "lon": 78.6843556, "tags": {"addr:district": "Tiruchirappalli", "addr:full": "No. 6, Seshapurm,Tennurtiruchiappalli", "addr:postcode": "620017", "addr:state": "Tamil Nadu", "amenity": "hospital", "healthcare": "hospital", "name": "Mahathma Eye Hospital", "source": "OpenGovernmentData"}}, {"type": "node", "id": 6936339119, "lat": 10.8288801, "lon": 78.702549, "tags": {"addr:district": "Tiruchirappalli", "addr:full": "#10, Town Railway Station Road,Near Town Railway Station", "addr:postcode": "620002", "addr:state": "Tamil Nadu", "amenity": "hospital", "healthcare": "hospital", "name": "Thirumurugan Hospital", "source": "OpenGovernmentData"}}, {"type": "node", "id": 6936359898, "lat": 10.7589696, "lon": 78.7045486, "tags": {"addr:district": "Tiruchirappalli", "addr:full": "#12, Wireless Road,Airport ,Kamaraj Nagar", "addr:postcode": "620007", "addr:state": "Tamil Nadu", "amenity": "hospital", "name": "Thilagavathy Hospital", "source": "OpenGovernmentData"}}, {"type": "node", "id": 6936440594, "lat": 10.8184647, "lon": 78.6858845, "tags": {"addr:district": "Tiruchirappalli", "addr:full": "No-10,Vishwanathpuram,Tennur", "addr:postcode": "620017", "addr:state": "Tamil Nadu", "amenity": "hospital", "healthcare": "hospital", "name": "Kerala Ayurvedic Hospital", "source": "OpenGovernmentData"}}, {"type": "node", "id": 6936663139, "lat": 10.8191992, "lon": 78.6777745}, {"type": "node", "id": 6936709095, "lat": 10.8233069, "lon": 78.6746728, "tags": {"addr:district": "Tiruchirappalli", "addr:full": "Worior", "addr:postcode": "620003", "addr:state": "Tamil Nadu", "amenity": "hospital", "healthcare": "hospital", "name": "C.S.I. Mission General Hospital", "source": "OpenGovernmentData"}}, {"type": "node", "id": 6936709101, "lat": 10.8271085, "lon": 78.6790998, "tags": {"addr:district": "Tiruchirappalli", "addr:full": "103-A, Salai Road,Woraiyur", "addr:postcode": "620001", "addr:state": "Tamil Nadu", "amenity": "hospital", "healthcare": "hospital", "name": "Bone and Joint Hospital", "source": "OpenGovernmentData"}}, {"type": "node", "id": 6936709131, "lat": 10.7729404, "lon": 78.6844549, "tags": {"addr:district": "Tiruchirappalli", "addr:full": "#1, Krishnamoorthy Nagar", "addr:postcode": "620021", "addr:state": "Tamil Nadu", "amenity": "hospital", "healthcare": "hospital", "name": "Krishna Hospital, Tiruchirappalli", "source": "OpenGovernmentData"}}, {"type": "node", "id": 6937058944, "lat": 10.8195073, "lon": 78.6838654, "tags": {"addr:district": "Tiruchirappalli", "addr:full": "A-6,11Th Cross (East), Thillaingar", "addr:postcode": "620018", "addr:state": "Tamil Nadu", "amenity": "hospital", "healthcare": "hospital", "name": "Ayesha Hospital, Thillaingar", "source": "OpenGovernmentData"}}, {"type": "node", "id": 6937624898, "lat": 10.8219673, "lon": 78.6830614, "tags": {"addr:district": "Tiruchirappalli", "addr:full": "34, 7Th Cross, Thillai Nagar (West)", "addr:postcode": "620018", "addr:state": "Tamil Nadu", "amenity": "hospital", "healthcare": "hospital", "name": "Sri Venkateshwara Hospital ,Tiruchirapalli", "source": "OpenGovernmentData"}}, {"type": "node", "id": 7181628619, "lat": 10.8239814, "lon": 78.6839486, "tags": {"addr:district": "Tiruchirappalli", "addr:full": "3-B,Bus Stand Road,Jayankondam", "addr:postcode": "621205", "addr:state": "Tamil Nadu", "amenity": "hospital", "healthcare": "hospital", "name": "Mangalam Hospital, Tiruchirappalli", "source": "OpenGovernmentData"}}, {"type": "node", "id": 7213391109, "lat": 10.8189824, "lon": 78.6837253, "tags": {"addr:district": "Tiruchirappalli", "addr:full": "Thillai Nagar Main Rd, Srinivasapuram, Thillai Nagar, Tiruchirappalli", "addr:postcode": "620001", "addr:state": "Tamil Nadu", "amenity": "hospital", "healthcare": "hospital", "name": "S.A.M Hospital", "source": "OpenGovernmentData"}}, {"type": "node", "id": 7257166757, "lat": 10.82071, "lon": 78.6793343, "tags": {"addr:district": "Thiruvarur", "addr:full": "Near SBI ATM, Lakshamangudi, Kambar Street", "addr:postcode": "614101", "addr:state": "Tamil Nadu", "addr:subdistrict": "Mannargudi", "amenity": "hospital", "healthcare": "hospital", "name": "Sana Hospital", "source": "OpenGovernmentData"}}, {"type": "node", "id": 7257166775, "lat": 10.7898308, "lon": 78.6968401, "tags": {"addr:block": "Tiruchirapalli Corp", "addr:district": "Tiruchirappalli", "addr:full": "Tvs Tolgate, Usman Ali Street, Trichy", "addr:postcode": "620020", "addr:state": "Tamil Nadu", "amenity": "hospital", "healthcare": "hospital", "name": "Aditi Hospital", "source": "OpenGovernmentData"}}, {"type": "node", "id": 7257166782, "lat": 10.8290124, "lon": 78.6861656, "tags": {"addr:block": "Tiruchirapalli Corp", "addr:district": "Tiruchirappalli", "addr:full": "86/2,3,4, Opposite Shivam Shopping Mall, Taj Mahal Salai, Karur Bypass Road, Annamalai Nagar, Woraiyur, Tiruchirappalli", "addr:postcode": "620018", "addr:state": "Tamil Nadu", "amenity": "hospital", "healthcare": "hospital", "name": "Jeyam Multispeciality Hospital", "source": "OpenGovernmentData"}}, {"type": "node", "id": 7257166789, "lat": 10.8167432, "lon": 78.6810429, "tags": {"addr:block": "Tiruchirapalli Corp", "addr:district": "Tiruchirappalli", "addr:full": "Near Gethsamane Prayer House, Trichy, Kc Road", "addr:postcode": "620017", "addr:state": "Tamil Nadu", "amenity": "hospital", "healthcare": "hospital", "name": "Kauvery Hospital", "source": "OpenGovernmentData"}}, {"type": "node", "id": 7257166794, "lat": 10.8138963, "lon": 78.6775833, "tags": {"addr:block": "Tiruchirapalli Corp", "addr:district": "Tiruchirappalli", "addr:full": "No : 17, Puthur Bustand Near, Trichy, Evr Road, Puthur", "addr:postcode": "620017", "addr:state": "Tamil Nadu", "amenity": "hospital", "healthcare": "hospital", "name": "Sundaram Hospital", "source": "OpenGovernmentData"}}, {"type": "node", "id": 7257166823, "lat": 10.8140735, "lon": 78.6697124, "tags": {"addr:district": "Tiruchirappalli", "addr:full": "9, Vayalur Rd, Kumaran Nagar, Tiruchirappalli", "addr:postcode": "620017", "addr:state": "Tamil Nadu", "amenity": "hospital", "healthcare": "hospital", "name": "Rmc Rathna Medical Uro & Ivf Centre", "source": "OpenGovernmentData"}}, {"type": "node", "id": 7257166828, "lat": 10.8114583, "lon": 78.6776904, "tags": {"addr:district": "Tiruchirappalli", "addr:full": "Evr Road, Puthur, Bharathi Nagar, Tiruchirappalli", "addr:postcode": "620017", "addr:state": "Tamil Nadu", "addr:subdistrict": "Thiruverumbur", "amenity": "hospital", "healthcare": "hospital", "name": "Mahatma Gandhi Memorial Government Hospital", "name:ta": "\u0b85\u0ba3\u0bcd\u0ba3\u0bb2\u0bcd \u0b95\u0bbe\u0ba8\u0bcd\u0ba4\u0bbf \u0ba8\u0bbf\u0ba9\u0bc8\u0bb5\u0bc1 \u0b85\u0bb0\u0b9a\u0bc1 \u0bae\u0bb0\u0bc1\u0ba4\u0bcd\u0ba4\u0bc1\u0bb5\u0bae\u0ba9\u0bc8", "source": "OpenGovernmentData"}}, {"type": "node", "id": 7257166864, "lat": 10.79729, "lon": 78.678497, "tags": {"addr:block": "Tiruchirapalli Corp", "addr:district": "Tiruchirappalli", "addr:full": "Collector Office Road, Cantonment, Tiruchirapalli", "addr:postcode": "620001", "addr:state": "Tamil Nadu", "amenity": "hospital", "healthcare": "hospital", "name": "K. A. P. Viswanathan Government Medical College Hospital", "source": "OpenGovernmentData"}}, {"type": "node", "id": 7526769782, "lat": 10.7926738, "lon": 78.6882626, "tags": {"amenity": "school", "name": "Railway School"}}, {"type": "node", "id": 7846487846, "lat": 10.7691886, "lon": 78.6842225}, {"type": "node", "id": 7846487850, "lat": 10.8178484, "lon": 78.6851018, "tags": {"addr:district": "Tiruchirappalli", "addr:full": "Srinivasapuram, Seshapuram, Tennur", "addr:postcode": "620017", "addr:state": "Tamil Nadu", "amenity": "hospital", "healthcare": "hospital", "name": "AJ Medical Centre & Hospital", "source": "Local Knowledge"}}, {"type": "node", "id": 7846487851, "lat": 10.8225487, "lon": 78.6830528, "tags": {"addr:district": "Tiruchirappalli", "addr:full": "Thillai Nagar", "addr:postcode": "620018", "addr:state": "Tamil Nadu", "amenity": "hospital", "healthcare": "hospital", "name": "SVH Speciality Hospital", "source": "Local Knowledge"}}, {"type": "node", "id": 7846487852, "lat": 10.8261103, "lon": 78.6774443, "tags": {"addr:district": "Tiruchirappalli", "addr:full": "Sakthi Mariamman Nagar, Woraiyur", "addr:postcode": "620018", "addr:state": "Tamil Nadu", "amenity": "hospital", "healthcare": "hospital", "name": "Saranya Psychiatric and Deaddiction Hospital", "source": "Local Knowledge"}}, {"type": "node", "id": 7846487853, "lat": 10.7680025, "lon": 78.6841464, "tags": {"addr:district": "Tiruchirappalli", "addr:full": "Sundarnagar", "addr:postcode": "620021", "addr:state": "Tamil Nadu", "amenity": "hospital", "healthcare": "hospital", "name": "Srinidhi Hospital", "source": "Local Knowledge"}}, {"type": "node", "id": 7846487857, "lat": 10.8017296, "lon": 78.6957613, "tags": {"addr:district": "Tiruchirappalli", "addr:full": "Kajapettai, Sangillyandapuram", "addr:postcode": "620001", "addr:state": "Tamil Nadu", "amenity": "hospital", "healthcare": "hospital", "name": "Sabari Hospital", "source": "Local Knowledge"}}, {"type": "node", "id": 7846487858, "lat": 10.813015, "lon": 78.7010119, "tags": {"addr:district": "Tiruchirappalli", "addr:full": "Varaganeri, Tharanallur", "addr:postcode": "620008", "addr:state": "Tamil Nadu", "amenity": "hospital", "healthcare": "hospital", "name": "Jaya Hospital", "source": "Local Knowledge"}}, {"type": "node", "id": 7846487859, "lat": 10.8326513, "lon": 78.6909964, "tags": {"addr:district": "Tiruchirappalli", "addr:postcode": "620002", "addr:state": "Tamil Nadu", "amenity": "hospital", "healthcare": "hospital", "name": "Sowmanasya Hospital and Institute of Psychiatry", "source": "Local Knowledge"}}, {"type": "node", "id": 7846487860, "lat": 10.7834183, "lon": 78.7008469, "tags": {"addr:district": "Tiruchirappalli", "addr:full": "Sundarraj Nagar, Subramaniyapuram", "addr:postcode": "620020", "addr:state": "Tamil Nadu", "amenity": "hospital", "healthcare": "hospital", "name": "Akshaya Hospital", "source": "Local Knowledge"}}, {"type": "node", "id": 7846487861, "lat": 10.80769, "lon": 78.6990611, "tags": {"addr:district": "Tiruchirappalli", "addr:full": "Malligaipuram Thottam, Kilapudur", "addr:postcode": "620008", "addr:state": "Tamil Nadu", "amenity": "hospital", "healthcare": "hospital", "name": "Venkateswara Hospital", "source": "Local Knowledge"}}, {"type": "node", "id": 7846487866, "lat": 10.8224998, "lon": 78.6752551, "tags": {"addr:district": "Tiruchirappalli", "addr:full": "Woraiyur", "addr:postcode": "620003", "addr:state": "Tamil Nadu", "amenity": "hospital", "healthcare": "hospital", "name": "Sai Care Hospital", "source": "Local Knowledge"}}, {"type": "node", "id": 7846487875, "lat": 10.7853789, "lon": 78.6910737, "tags": {"addr:district": "Tiruchirappalli", "addr:full": "Mannarpuram, Sangillyandapuram", "addr:postcode": "620020", "addr:state": "Tamil Nadu", "amenity": "hospital", "healthcare": "hospital", "name": "Dr. Safiulla Hospital", "source": "Local Knowledge"}}, {"type": "node", "id": 7846487876, "lat": 10.7759757, "lon": 78.6859974, "tags": {"addr:district": "Tiruchirappalli", "addr:postcode": "620021", "addr:state": "Tamil Nadu", "amenity": "hospital", "healthcare": "hospital", "name": "Ragavendra Hospital", "source": "Local Knowledge"}}, {"type": "node", "id": 7846487878, "lat": 10.8197905, "lon": 78.6843469, "tags": {"addr:district": "Tiruchirappalli", "addr:full": "Thillai Nagar", "addr:postcode": "620018", "addr:state": "Tamil Nadu", "amenity": "hospital", "healthcare": "hospital", "name": "Hashini IVF Centre", "source": "Local Knowledge"}}, {"type": "node", "id": 7846487879, "lat": 10.8117331, "lon": 78.6969997, "tags": {"addr:district": "Tiruchirappalli", "addr:full": "Anna Nagar,Tennur", "addr:postcode": "620017", "addr:state": "Tamil Nadu", "amenity": "hospital", "healthcare": "hospital", "name": "PV Moorthy Hospital", "source": "Local Knowledge"}}, {"type": "node", "id": 7846487880, "lat": 10.8262068, "lon": 78.6846836, "tags": {"addr:district": "Tiruchirappalli", "addr:full": "Thillai Nagar", "addr:postcode": "620018", "addr:state": "Tamil Nadu", "amenity": "hospital", "healthcare": "hospital", "name": "Arun Hospital", "source": "Local Knowledge"}}, {"type": "node", "id": 7846487888, "lat": 10.8246371, "lon": 78.681967, "tags": {"addr:district": "Tiruchirappalli", "addr:full": "Thillai Nagar", "addr:postcode": "620018", "addr:state": "Tamil Nadu", "amenity": "hospital", "healthcare": "hospital", "name": "Silverline Speciality Hospital", "source": "Local Knowledge"}}, {"type": "node", "id": 7846487890, "lat": 10.8187547, "lon": 78.6836963, "tags": {"addr:district": "Tiruchirappalli", "addr:full": "Srinivasapuram, Thillai Nagar", "addr:postcode": "620018", "addr:state": "Tamil Nadu", "amenity": "hospital", "healthcare": "hospital", "name": "Vasan Hospital", "source": "Local Knowledge"}}, {"type": "node", "id": 7846487892, "lat": 10.8131042, "lon": 78.6730489, "tags": {"addr:district": "Tiruchirappalli", "addr:full": "Bharthi Nagar", "addr:postcode": "620017", "addr:state": "Tamil Nadu", "amenity": "hospital", "healthcare": "hospital", "name": "Arogya Ayurveda Hospital", "source": "Local Knowledge"}}, {"type": "node", "id": 7846487893, "lat": 10.7897017, "lon": 78.6634264, "tags": {"addr:district": "Tiruchirappalli", "addr:full": "Karumandapam", "addr:postcode": "620001", "addr:state": "Tamil Nadu", "amenity": "hospital", "healthcare": "hospital", "name": "Nagu Hospital", "source": "Local Knowledge"}}, {"type": "node", "id": 7846487894, "lat": 10.8235492, "lon": 78.6816099, "tags": {"addr:district": "Tiruchirappalli", "addr:full": "Thillai Nagar", "addr:postcode": "620018", "addr:state": "Tamil Nadu", "amenity": "hospital", "healthcare": "hospital", "name": "Srinvas Hospital", "source": "Local Knowledge"}}, {"type": "node", "id": 7846487896, "lat": 10.8130426, "lon": 78.675866, "tags": {"addr:district": "Tiruchirappalli", "addr:full": "Aruna Nagar, Puthur, Bharthi Nagar", "addr:postcode": "620017", "addr:state": "Tamil Nadu", "amenity": "hospital", "healthcare": "hospital", "name": "Shree Ramya Hospital", "source": "Local Knowledge"}}, {"type": "node", "id": 7846487898, "lat": 10.8144447, "lon": 78.6859995, "tags": {"addr:district": "Tiruchirappalli", "addr:full": "Anna Nagar, Tennur", "addr:postcode": "620017", "addr:state": "Tamil Nadu", "amenity": "hospital", "healthcare": "hospital", "name": "Moorthys Hospital", "source": "Local Knowledge"}}, {"type": "node", "id": 7846487900, "lat": 10.8270753, "lon": 78.6824426, "tags": {"addr:district": "Tiruchirappalli", "addr:full": "Woraiyur", "addr:postcode": "620018", "addr:state": "Tamil Nadu", "amenity": "hospital", "healthcare": "hospital", "name": "SMS Hospital", "source": "Local Knowledge"}}, {"type": "node", "id": 7846487901, "lat": 10.8197438, "lon": 78.6762039, "tags": {"addr:district": "Tiruchirappalli", "addr:full": "Anjeneyapuram, Ramlinga Nagar, Thillai Nagar", "addr:postcode": "620017", "addr:state": "Tamil Nadu", "amenity": "hospital", "healthcare": "hospital", "name": "Children Hospital", "source": "Local Knowledge"}}, {"type": "node", "id": 7846487905, "lat": 10.8168975, "lon": 78.6891947, "tags": {"addr:district": "Tiruchirappalli", "addr:full": "Anna Nagar, Thillai Nagar", "addr:postcode": "620026", "addr:state": "Tamil Nadu", "amenity": "hospital", "healthcare": "hospital", "name": "Hindu Mission Hospital", "source": "Local Knowledge"}}, {"type": "node", "id": 7846487908, "lat": 10.7901175, "lon": 78.6951689, "tags": {"addr:district": "Tiruchirappalli", "addr:full": "Subramaniapuram", "addr:postcode": "620020", "addr:state": "Tamil Nadu", "amenity": "hospital", "healthcare": "hospital", "name": "TR Hospital", "source": "Local Knowledge"}}, {"type": "node", "id": 7846487910, "lat": 10.8278181, "lon": 78.6840472, "tags": {"addr:district": "Tiruchirappalli", "addr:full": "Annamalai Nagar, Woraiyur", "addr:postcode": "620003", "addr:state": "Tamil Nadu", "amenity": "hospital", "healthcare": "hospital", "name": "City Hospital", "source": "Local Knowledge"}}, {"type": "node", "id": 7846487916, "lat": 10.8344117, "lon": 78.6887181, "tags": {"addr:district": "Tiruchirappalli", "addr:postcode": "620002", "addr:state": "Tamil Nadu", "amenity": "hospital", "healthcare": "hospital", "name": "Surya Child Hospital", "source": "Local Knowledge"}}, {"type": "node", "id": 7846487917, "lat": 10.7734625, "lon": 78.6930436, "tags": {"addr:district": "Tiruchirappalli", "addr:full": "Edamalaipatti Pudur", "addr:postcode": "620023", "addr:state": "Tamil Nadu", "amenity": "hospital", "healthcare": "hospital", "name": "Om Harish Hospital", "source": "Local Knowledge"}}, {"type": "node", "id": 7846487918, "lat": 10.8201739, "lon": 78.6747351, "tags": {"addr:district": "Tiruchirappalli", "addr:full": "Ramlinga Nagar, Thillai Nagar", "addr:postcode": "620017", "addr:state": "Tamil Nadu", "amenity": "hospital", "healthcare": "hospital", "name": "Arogya Hospital", "source": "Local Knowledge"}}, {"type": "node", "id": 7846487919, "lat": 10.8268337, "lon": 78.6854975, "tags": {"addr:district": "Tiruchirappalli", "addr:full": "Thillai Nagar", "addr:postcode": "620003", "addr:state": "Tamil Nadu", "amenity": "hospital", "healthcare": "hospital", "name": "Vaishali Hospital", "source": "Local Knowledge"}}, {"type": "node", "id": 7846487921, "lat": 10.7822224, "lon": 78.7016182, "tags": {"addr:district": "Tiruchirappalli", "addr:full": "Subramaniyapuram", "addr:postcode": "620020", "addr:state": "Tamil Nadu", "amenity": "hospital", "healthcare": "hospital", "name": "Velan Speciality Hospitals", "source": "Local Knowledge"}}, {"type": "node", "id": 7846487923, "lat": 10.8105002, "lon": 78.6959714, "tags": {"addr:district": "Tiruchirappalli", "addr:full": "Palakarai, Sangillyandapuram", "addr:postcode": "620008", "addr:state": "Tamil Nadu", "amenity": "hospital", "healthcare": "hospital", "name": "Safiulla Hospital", "source": "Local Knowledge"}}, {"type": "node", "id": 7846487924, "lat": 10.829047, "lon": 78.6861428, "tags": {"addr:district": "Tiruchirappalli", "addr:full": "Annamalai Nagar, Woraiyur", "addr:postcode": "620018", "addr:state": "Tamil Nadu", "amenity": "hospital", "healthcare": "hospital", "name": "Maxcare Hospital", "source": "Local Knowledge"}}, {"type": "node", "id": 7846487928, "lat": 10.8195071, "lon": 78.6843609, "tags": {"addr:district": "Tiruchirappalli", "addr:full": "Thillai Nagar, Tennur", "addr:postcode": "620018", "addr:state": "Tamil Nadu", "amenity": "hospital", "healthcare": "hospital", "name": "Gastro Care Hospital", "source": "Local Knowledge"}}, {"type": "node", "id": 7846487932, "lat": 10.8141922, "lon": 78.6822878, "tags": {"addr:district": "Tiruchirappalli", "addr:full": "Anna Nagar, Tennur", "addr:postcode": "620017", "addr:state": "Tamil Nadu", "amenity": "hospital", "healthcare": "hospital", "name": "Neomed Hospital", "source": "Local Knowledge"}}, {"type": "node", "id": 7846487934, "lat": 10.8233564, "lon": 78.681869, "tags": {"addr:district": "Tiruchirappalli", "addr:full": "Thillai Nagar", "addr:postcode": "620018", "addr:state": "Tamil Nadu", "amenity": "hospital", "healthcare": "hospital", "name": "Star Kims Hospitals", "source": "Local Knowledge"}}, {"type": "node", "id": 7846487938, "lat": 10.8206918, "lon": 78.6808905, "tags": {"addr:district": "Tiruchirappalli", "addr:full": "Tennur", "addr:postcode": "620018", "addr:state": "Tamil Nadu", "amenity": "hospital", "healthcare": "hospital", "name": "Gitanjali Hospitals", "source": "Local Knowledge"}}, {"type": "node", "id": 8929050638, "lat": 10.815099, "lon": 78.6703183}, {"type": "node", "id": 8929050639, "lat": 10.8146749, "lon": 78.6703129}, {"type": "node", "id": 8929050640, "lat": 10.8147052, "lon": 78.6698496}, {"type": "node", "id": 8929050641, "lat": 10.8151185, "lon": 78.66987}, {"type": "node", "id": 8929050642, "lat": 10.8150693, "lon": 78.6703187}, {"type": "node", "id": 8929050643, "lat": 10.8147236, "lon": 78.6703116}, {"type": "node", "id": 9142719725, "lat": 10.8130704, "lon": 78.6783689}, {"type": "node", "id": 9142719726, "lat": 10.8123657, "lon": 78.6763197}, {"type": "node", "id": 9142719727, "lat": 10.8123038, "lon": 78.6759844}, {"type": "node", "id": 9142719728, "lat": 10.8122563, "lon": 78.675621}, {"type": "node", "id": 9142719729, "lat": 10.8122287, "lon": 78.6752978}, {"type": "node", "id": 9142719730, "lat": 10.8104582, "lon": 78.6760274}, {"type": "node", "id": 9142719731, "lat": 10.8102382, "lon": 78.679474}, {"type": "node", "id": 11348103369, "lat": 10.8265318, "lon": 78.6946137}, {"type": "node", "id": 11375794309, "lat": 10.8192024, "lon": 78.677729}, {"type": "node", "id": 11375794556, "lat": 10.8192035, "lon": 78.6776378}, {"type": "node", "id": 11375794704, "lat": 10.8189702, "lon": 78.6778586}, {"type": "node", "id": 11375794735, "lat": 10.8191982, "lon": 78.6778523}, {"type": "node", "id": 11375794741, "lat": 10.8191365, "lon": 78.6777281}, {"type": "node", "id": 11375794863, "lat": 10.819136, "lon": 78.6777737}, {"type": "node", "id": 11375795245, "lat": 10.819048, "lon": 78.6778596}, {"type": "node", "id": 11375795496, "lat": 10.8190481, "lon": 78.6778504}, {"type": "node", "id": 11375795568, "lat": 10.818973, "lon": 78.6776348}, {"type": "node", "id": 11397838418, "lat": 10.8049452, "lon": 78.6935113}, {"type": "node", "id": 11397838419, "lat": 10.8050269, "lon": 78.6935543}, {"type": "node", "id": 11397838420, "lat": 10.8052232, "lon": 78.6935543}, {"type": "node", "id": 11397838554, "lat": 10.8047292, "lon": 78.6835939}, {"type": "node", "id": 11397838555, "lat": 10.8048109, "lon": 78.6847811}, {"type": "node", "id": 11409448947, "lat": 10.7441146, "lon": 78.7019735}, {"type": "node", "id": 11417087972, "lat": 10.80477, "lon": 78.6847754}, {"type": "node", "id": 11417954952, "lat": 10.769173, "lon": 78.6843683}, {"type": "node", "id": 11417955860, "lat": 10.7690402, "lon": 78.6843535}, {"type": "node", "id": 11417956298, "lat": 10.7690558, "lon": 78.6842077}, {"type": "node", "id": 12078410435, "lat": 10.7969694, "lon": 78.7102871, "tags": {"amenity": "school", "check_date": "2024-07-28", "name": "Sri Chaitanya Techno School", "source": "survey"}}, {"type": "node", "id": 12298329913, "lat": 10.8037895, "lon": 78.6719184, "tags": {"amenity": "school", "name": "Kamala Niketan Montessori School"}}, {"type": "node", "id": 12298329916, "lat": 10.8028537, "lon": 78.671033, "tags": {"amenity": "school", "name": "Kamala Niketan Montessori School"}}, {"type": "node", "id": 12972962890, "lat": 10.8032623, "lon": 78.6877965, "tags": {"amenity": "hospital", "healthcare": "hospital", "name": "Padmakshi hospital", "name:ta": "\u0baa\u0ba4\u0bcd\u0bae\u0bbe\u0b95\u0bcd\u0bb7\u0bbf \u0bae\u0bb0\u0bc1\u0ba4\u0bcd\u0ba4\u0bc1\u0bb5\u0bae\u0ba9\u0bc8"}}, {"type": "node", "id": 12973419917, "lat": 10.8098728, "lon": 78.6803203, "tags": {"amenity": "hospital", "healthcare": "hospital", "name": "Retna Global hospital", "name:ta": "\u0bb0\u0ba4\u0bcd\u0ba9\u0bbe \u0b95\u0bc1\u0bb3\u0bcb\u0baa\u0bb2\u0bcd \u0bae\u0bb0\u0bc1\u0ba4\u0bcd\u0ba4\u0bc1\u0bb5\u0bae\u0ba9\u0bc8"}}, {"type": "node", "id": 13008650082, "lat": 10.8262509, "lon": 78.6817152, "tags": {"amenity": "hospital", "healthcare": "hospital", "name": "Ponne hospitalz", "name:ta": "\u0baa\u0bca\u0ba9\u0bcd\u0ba9\u0bbf \u0bae\u0bb0\u0bc1\u0ba4\u0bcd\u0ba4\u0bc1\u0bb5\u0bae\u0ba9\u0bc8"}}, {"type": "node", "id": 13036672132, "lat": 10.8288951, "lon": 78.6821604, "tags": {"addr:city": "tiruchirapalli", "addr:district": "TIRUCHIRAPPALLI", "addr:housenumber": "5/2-1", "addr:postcode": "620003", "addr:street": "Kaveri College road", "amenity": "hospital", "emergency": "yes", "healthcare": "hospital", "healthcare:speciality": "urology;pulmonology;gynaecology;surgery", "internet_access": "wired", "mobile": "94422-39476", "name": "Aiyshwariya Hospital", "opening_hours": "24/7", "operator": "Dr.P.Mahalakshmi MBBS,DTCD & Dr. Rajeah Rajendran MBBS, MS, MCh, FRCS Urology", "operator:type": "private", "phone": "0431-4000969", "website": "aiyshwariyahospitaltrichy@gmail.com", "wheelchair": "yes"}}, {"type": "way", "id": 120576573, "nodes": [1351674241, 1351674255, 1351674247, 1351674246, 1351674243, 1351674249, 1351674256, 1351674248, 1351674250, 1351674251, 1351674245, 1351674242, 1351674253, 1351674244, 1351674254, 11348103369, 1351674241], "tags": {"amenity": "school", "name": "Bishop Heber Higher Secondary School"}}, {"type": "way", "id": 204763534, "nodes": [2147393586, 2147393591, 4680384444, 4680384445, 2147393587, 11397838555, 11417087972, 2147393589, 2147393588, 2147393585, 2147393590, 11397838554, 2147393586], "tags": {"addr:city": "Tiruchirapalli", "addr:housenumber": "Post Box : 11", "addr:postcode": "620001", "addr:street": "Cantonment", "amenity": "school", "description": "Campion Anglo - Indian Higher Secondary School is named after its Patron Saint Edmund Campion, an Oxford Scholar and Jesuit Priest, who was martyred for the Catholic Faith in the reign of Queen Elizabeth I of England and canonized in 25th October, 1970.", "email": "campionschool@yahoo.co.in", "name": "Campion Anglo-Indian Higher Secondary School", "phone": "+91 7305397514, +917305397515", "website": "https://campionschool.net/", "wikidata": "Q5028399", "wikipedia": "en:Campion Anglo-Indian Higher Secondary School"}}, {"type": "way", "id": 262966258, "nodes": [2686079025, 2686079026, 2686079027, 4535572689, 4535572695, 4535572697, 4535572187, 4535572693, 11409448947, 2686079035, 2686079036, 2686079037, 2686079038, 2686079040, 2686079041, 2686079042, 2686079039, 2686079044, 2686079043, 2686079045, 2686079046, 2686079047, 2686079048, 2686079049, 2686079050, 2686079051, 2686079052, 2686079053, 2686079054, 2686079055, 2686079025]}, {"type": "way", "id": 437683982, "nodes": [4354765463, 4354765464, 4354765465, 4354765466, 4354765463], "tags": {"amenity": "school", "name": "Arokiamatha Higher Secondary School"}}, {"type": "way", "id": 455766713, "nodes": [4521245481, 4521245482, 4521245483, 4521245484, 4521245481], "tags": {"alt_name": "ESI Hospital", "amenity": "hospital", "healthcare": "hospital", "name": "ESIS- Employes State Insurance Scheme", "operator": "Employees' State Insurance", "operator:short": "ESI", "operator:wikidata": "Q3595726", "operator:wikipedia": "hi:\u0915\u0930\u094d\u092e\u091a\u093e\u0930\u0940 \u0930\u093e\u091c\u094d\u200d\u092f \u092c\u0940\u092e\u093e \u0928\u093f\u0917\u092e"}}, {"type": "way", "id": 456125571, "nodes": [4524030143, 4524030144, 4524030145, 4524030146, 11397838420, 11397838419, 11397838418, 4524030147, 4524030148, 4524030143], "tags": {"amenity": "school", "name": "St. Philomena's Girls Higher Secondary School"}}, {"type": "way", "id": 566961520, "nodes": [5458744730, 5458744731, 5458744732, 5458744733, 5458744734, 5458744735, 5458744730], "tags": {"addr:city": "Tiruchchirappalli town", "addr:street": "Wireless Road", "amenity": "hospital", "healthcare": "hospital", "name": "Malar Hospital"}}, {"type": "way", "id": 965218914, "nodes": [8929050641, 8929050640, 8929050639, 8929050643, 8929050642, 8929050638, 8929050641], "tags": {"amenity": "school", "name": "Sri Sivananda Balalaya Senior Secondary School"}}, {"type": "way", "id": 989173710, "nodes": [9142719731, 9142719730, 9142719729, 9142719728, 9142719727, 9142719726, 9142719725, 9142719731], "tags": {"amenity": "hospital", "emergency": "yes", "healthcare": "hospital", "name": "Mahatma Gandhi Memorial Government Hospital", "name:etymology:wikidata": "Q1001"}}, {"type": "way", "id": 1226763699, "nodes": [11375795568, 11375794704, 11375795245, 11375795496, 11375794735, 6936663139, 11375794863, 11375794741, 11375794309, 11375794556, 11375795568], "tags": {"addr:district": "Tiruchirappalli", "addr:full": "31,Bishop Road,Puthur", "addr:postcode": "620017", "addr:state": "Tamil Nadu", "amenity": "hospital", "building": "yes", "healthcare": "hospital", "name": "Vihas Hospital", "source": "OpenGovernmentData;microsoft/BuildingFootprints"}}, {"type": "way", "id": 1231163695, "nodes": [11417955860, 11417954952, 7846487846, 11417956298, 11417955860], "tags": {"addr:district": "Tiruchirappalli", "addr:full": "Sundar Nagar, Edamalaipatti Pudur", "addr:postcode": "620021", "addr:state": "Tamil Nadu", "amenity": "hospital", "building": "yes", "healthcare": "hospital", "name": "Varshini Hospitals", "source": "Local Knowledge;microsoft/BuildingFootprints"}}, {"type": "relation", "id": 16810301, "members": [{"type": "way", "ref": 262966258, "role": "outer"}], "tags": {"addr:city": "Tiruchirappalli", "addr:housename": "SBIOA Matriculation Higher Secondary School", "addr:postcode": "600007", "addr:street": "Kullapatti, Airport Post", "alt_name": "SBIOA School", "amenity": "school", "email": "sbioa7@gmail.com", "int_name": "SBIOA School", "name": "SBIOA CBSE School, Trichy", "note": "This school is one of the famous school in Trichy where the students are well trained both in academics and also sports.", "old_name": "Best Trichy School", "operator": "SBIOA Educational Trust", "phone": "+91 431 234 1067", "school:gender": "mixed", "type": "multipolygon", "website": "http://sbioatrichy.org"}}]}